[
    {
        "name": "Arapahoe Community College",
        "picture": "https://upload.wikimedia.org/wikipedia/commons/b/b5/ArapahoeCommunityCollege.JPG",
        "address": "5900 S. Santa Fe Dr., Littleton, CO 80120",
        "phone_number": "(303) 797-5090",
        "city": "Littleton",
        "price_range": "∅",
        "latitude": 39.6016,
        "longitude": -105.0146,
        "website": "https://www.arapahoe.edu/", 
        "wifi": true

    },
    {
        "name": "Colorado Christian University, Clifton Fowler Library",
        "picture": "https://example.com/default-coffee-image.jpg",
        "address": "180 Garrison St., Lakewood, CO 80226",
        "phone_number": "(303) 963-3250",
        "city": "Lakewood",
        "price_range": "∅",
        "latitude": 39.7266,
        "longitude": -105.1346,
        "website": "https://www.ccu.edu/library/",
        "wifi": true
    },
    {
        "name": "Colorado School of Mines, Arthur Lakes Library",
        "picture": "https://example.com/default-coffee-image.jpg",
        "address": "1400 Illinois St., Golden, CO 80401",
        "phone_number": "(303) 273-3698",
        "city": "Golden",
        "price_range": "∅",
        "latitude": 39.7503,
        "longitude": -105.2236,
        "website": "https://www.mines.edu/library/",
        "wifi": true
    },
    {
        "name": "Denver Public Library",
        "picture": "https://lh3.googleusercontent.com/p/AF1QipMJsMrkXPt5ZGzy8Q2kCfBQ1q4jrBX5apXe90ur=s1360-w1360-h1020",
        "address": "10 W. Fourteenth Ave., Pkwy, Denver 80204",
        "phone_number": "(720) 865-1111",
        "city": "Denver",
        "price_range": "∅",
        "latitude": 39.7376,
        "longitude": -104.9897,
        "website": "https://www.denverlibrary.org/",
        "wifi": true

    },
    {
        "name": "Colorado State Library",
        "picture": "https://lh3.googleusercontent.com/p/AF1QipNrqLztzvQaDECMUdyFEMEZv2i7mmsVVDMxjzTs=s1360-w1360-h1020",
        "address": "201 E. Colfax Ave., Denver, CO 80203",
        "phone_number": "(303) 866-6900",
        "city": "Denver",
        "price_range": "∅",
        "latitude": 39.7392,
        "longitude": -104.9903,
        "website": "https://www.cde.state.co.us/cdelib",
        "wifi": true
    },
    {
        "name": "Front Range Community College Library",
        "picture": "https://example.com/default-coffee-image.jpg",
        "address": "3645 W. 112th Ave., Westminster, CO 80031",
        "phone_number": "(303) 404-5504",
        "city": "Westminster",
        "price_range": "∅",
        "latitude": 39.9115,
        "longitude": -105.0403,
        "website": "https://www.frontrange.edu/",
        "wifi": true
    },
    {
        "name": "Golden Library",
        "picture": "https://example.com/default-coffee-image.jpg",
        "address": "1019 10th Street, Golden, CO 80401",
        "phone_number": "(303) 235-5275",
        "city": "Golden",
        "price_range": "∅",
        "latitude": 39.7555,
        "longitude": -105.2211,
        "website": "https://www.jeffcolibrary.org/locations/golden-library",
        "wifi": true
    },
    {
        "name": "Lakewood Library",
        "picture": "https://example.com/default-coffee-image.jpg",
        "address": "10200 W. 20th Ave., Lakewood, CO 80215",
        "phone_number": "(303) 235-5275",
        "city": "Lakewood",
        "price_range": "∅",
        "latitude": 39.7487,
        "longitude": -105.1072,
        "website": "https://www.jeffcolibrary.org/locations/lakewood-library",
        "wifi": true
    },
    {
        "name": "Parker Library",
        "picture": "https://example.com/default-coffee-image.jpg",
        "address": "20105 Mainstreet, Parker, CO 80138",
        "phone_number": "(303) 791-7323",
        "city": "Parker",
        "price_range": "∅",
        "latitude": 39.5186,
        "longitude": -104.7614,
        "website": "https://www.dcl.org/",
        "wifi": true
    },
    {
        "name": "Red Rocks Community College, Marvin Buckels Library",
        "picture": "https://example.com/default-coffee-image.jpg",
        "address": "13300 W. 6th Ave., Lakewood, CO 80228",
        "phone_number": "(303) 914-6740",
        "city": "Lakewood",
        "price_range": "∅",
        "latitude": 39.7257,
        "longitude": -105.1513,
        "website": "https://www.rrcc.edu/library",
        "wifi": true
    },
    {
        "name": "Regis University, Dayton Memorial Library",
        "picture": "https://example.com/default-coffee-image.jpg",
        "address": "3333 Regis Blvd., Denver, CO 80221",
        "phone_number": "(303) 458-4030",
        "city": "Denver",
        "price_range": "∅",
        "latitude": 39.7896,
        "longitude": -105.0311,
        "website": "https://www.regis.edu/library",
        "wifi": true
    },
    {
        "name": "University of Colorado Strauss Health Sciences Library, Anschutz Medical Campus ",
        "picture": "https://example.com/default-coffee-image.jpg",
        "address": "12950 E. Montview Blvd, Aurora CO 80045",
        "phone_number": "(303) 724-2152",
        "city": "Denver",
        "price_range": "∅",
        "latitude": 39.7427,
        "longitude": -104.8422,
        "website": "https://hslibrary.ucdenver.edu/",
        "wifi": true
    },
    {
        "name": "University of Denver, Anderson Academic Commons",
        "picture": "https://example.com/default-coffee-image.jpg",
        "address": "2150 E. Evans, Denver, CO 80208",
        "phone_number": "(303) 871-3707",
        "city": "Denver",
        "price_range": "∅",
        "latitude": 39.6786,
        "longitude": -104.9619,
        "website": "https://library.du.edu/",
        "wifi": true
    },
    {
        "name": "University of Denver Law School, Westminster Law Library",
        "picture": "https://example.com/default-coffee-image.jpg",
        "address": "2255 E. Evans, Denver, CO 80208",
        "phone_number": "(303) 871-6188",
        "city": "Denver",
        "price_range": "∅",
        "latitude": 39.6786,
        "longitude": -104.9619,
        "website": "https://www.law.du.edu/library",
        "wifi": true
    },
    {
        "name": "Wheat Ridge Library",
        "picture": "https://example.com/default-coffee-image.jpg",
        "address": "5475 W. 32nd Ave., Wheat Ridge, CO 80212",
        "phone_number": "(303) 235-5275",
        "city": "Wheat Ridge",
        "price_range": "∅",
        "latitude": 39.7625,
        "longitude": -105.0532,
        "website": "https://www.jeffcolibrary.org/locations/wheat-ridge-library",
        "wifi": true
    },
    {
        "name": "Colorado State University, Morgan Library",
        "picture": "https://example.com/default-coffee-image.jpg",
        "address": "1201 Center Ave., Ft. Collins, Colorado 80523",
        "phone_number": "(970) 491-1841",
        "city": "Ft. Collins",
        "price_range": "∅",
        "latitude": 40.5734,
        "longitude": -105.0865,
        "website": "https://lib.colostate.edu/",
        "wifi": true
    },
    {
        "name": "CU Norlin Library",
        "picture": "https://example.com/default-coffee-image.jpg",
        "address": "1720 Pleasant St., Boulder, CO  80309",
        "phone_number": "(303) 492-8705",
        "city": "Boulder",
        "price_range": "∅",
        "latitude": 40.0076,
        "longitude": -105.2659,
        "website": "https://www.colorado.edu/libraries/",
        "wifi": true
    },
    {
        "name": "CU Law Library, William A. Wise Law Library",
        "picture": "https://example.com/default-coffee-image.jpg",
        "address": "2450 Kittredge Loop Dr., Boulder, CO 80309",
        "phone_number": "(303) 492-7534",
        "city": "Boulder",
        "price_range": "∅",
        "latitude": 40.0076,
        "longitude": -105.2659,
        "website": "https://lawlibrary.colorado.edu/",
        "wifi": true
    },
    {
        "name": "University of Colorado, Colorado Springs, Kraemer Family Library",
        "picture": "https://example.com/default-coffee-image.jpg",
        "address": "1420 Austin Bluffs Pkwy, Colorado Springs, CO 80918",
        "phone_number": "(719) 255-3295",
        "city": "Colorado Springs",
        "price_range": "∅",
        "latitude": 38.8964,
        "longitude": -104.8003,
        "website": "https://www.uccs.edu/library/",
        "wifi": true
    },
    {
        "name": "Colorado College, Colorado College Tutt Library",
        "picture": "https://example.com/default-coffee-image.jpg",
        "address": "1021 N. Cascade Ave., Colorado Springs, CO 80903",
        "phone_number": "(719) 389- 6658",
        "city": "Colorado Springs",
        "price_range": "∅",
        "latitude": 38.8483,
        "longitude": -104.8224,
        "website": "https://www.coloradocollege.edu/library/",
        "wifi": true
    }
]